[
  {
    "name": "New Space",
    "price": 45.0,
    "available": 5,
    "lat": 5.575264,
    "lng": -0.154254,
    "owner_lat": "5.575264",
    "owner_lng": "-0.154254",
    "id": 12,
    "distance": "0.5 km",
    "trust_level": 3,
    "image_url": "https://african.land/oc-content/plugins/blog/img/blog/1822.jpg",
    "qr_code_id": "PW-412472DD"
  },
  {
    "name": "DVLA Space",
    "price": 45.0,
    "available": 5,
    "lat": 5.58596,
    "lng": -0.137265,
    "owner_lat": "5.585960",
    "owner_lng": "-0.137265",
    "id": 13,
    "distance": "0.5 km",
    "trust_level": 3,
    "image_url": "https://lh3.googleusercontent.com/gps-cs-s/AHVAweo9BhJ4cPGqFQinS_ctHmp2d0oV0qjs5rah33Je7o11ubB3g_gQES55Kj_bQJna-Rl4Kf4vAA1rOIkQDIoI29s06NfBaALXI9Gq7HwdRFnqxaXNZcSj4DY8BrbM3-8L3SwJI2lP=s680-w680-h510-rw",
    "qr_code_id": "PW-0D23E6BE"
  },
  {
    "name": "Era Space",
    "price": 45.0,
    "available": 6,
    "lat": 5.59115,
    "lng": -0.135355,
    "owner_lat": "5.591150",
    "owner_lng": "-0.135355",
    "id": 14,
    "distance": "0.5 km",
    "trust_level": 3,
    "image_url": "https://img.freepik.com/free-photo/underground-industry-night-vehicle-illuminated_1127-2366.jpg?semt=ais_hybrid&w=740&q=80",
    "qr_code_id": "PW-2527A3C2"
  },
  {
    "name": "Ladma Car Park",
    "price": 10.0,
    "available": 30,
    "lat": 5.57509,
    "lng": -0.146706,
    "image_url": "https://www.newsghana.com.gh/wp-content/uploads/2021/07/La-Dade-Kotopon-Municipal-Assembly.png",
    "owner_lat": "5.575090",
    "owner_lng": "-0.146706",
    "id": 15,
    "distance": "0.5 km",
    "trust_level": 3,
    "qr_code_id": "PW-2B799058"
  },
  {
    "name": "Shell Filling Station - Park",
    "price": 20.0,
    "available": 10,
    "lat": 5.576735,
    "lng": -0.152822,
    "image_url": "https://lh3.googleusercontent.com/gps-cs-s/AHVAweof8WCQjZanB912W7tQCBZR21gYFyOfXb9_dnUbWLj5MFQULbVJkWsEUN74BsQlenJW5e_iBWg826cQUMOU4zRsTEhnBKz0SOZK4MgXmgWxZ41Rp8WxCv-oWcvu6gkHtjC-yAs=s680-w680-h510-rw",
    "owner_lat": "5.576735",
    "owner_lng": "-0.152822",
    "id": 16,
    "distance": "0.5 km",
    "trust_level": 3,
    "qr_code_id": "PW-FDC296C2"
  }
]